{
  "source": "government",
  "retrieved_date": "2026-02-25",
  "notes": "EDSA Carousel Route 1 (formerly Route E). Single busway route, two directional variants. Stop coordinates estimated from EDSA median intersections — no official GPS file published. Stop count discrepancy: edsacarousel.ph lists 19 NB / 21 SB named stations; other sources count 23 NB / 24 SB including unnamed intermediate stops.",
  "routes": [
    {
      "route_id": "EDSA-CAROUSEL-1",
      "route_name": "EDSA Carousel Route 1",
      "mode": "bus",
      "origin": "PITX (Parañaque Integrated Terminal Exchange)",
      "destination": "Monumento (Caloocan) / MCU",
      "key_stops": [
        "PITX",
        "City of Dreams",
        "DFA Macapagal Blvd",
        "SM Mall of Asia / Roxas Blvd",
        "Taft / Pasay Rotonda (LRT-1/MRT-3)",
        "Ayala (MRT-3)",
        "Buendia (MRT-3)",
        "Guadalupe (MRT-3)",
        "Ortigas (MRT-3)",
        "Santolan-Annapolis (MRT-3)",
        "Main Avenue / Cubao",
        "Nepa Q-Mart",
        "Kamuning / Quezon Avenue",
        "Philam / North Avenue (MRT-3)",
        "SM North EDSA",
        "Roosevelt / FPJ (LRT-1)",
        "Kaingin Road",
        "Balintawak (LRT-1)",
        "Bagong Barrio",
        "Monumento / MCU (LRT-1)"
      ],
      "fare_min": 15,
      "fare_max": 75.5,
      "frequency_notes": "Peak (7-10AM, 5-8PM): ~2-5 min headway estimated (751 buses authorized). Off-peak: ~5-15 min. Late night (11PM-4AM): limited service Taft-Monumento only; 15-30+ min wait. Full service 4AM-11PM daily.",
      "geometry_available": false,
      "geometry_source": "Route follows EDSA (C-4) from PITX via Roxas Blvd/Macapagal then EDSA median to Monumento. OSM relation likely exists.",
      "confidence": "high",
      "notes": "Operators: Mega Manila Consortium Corp + ES Transport and Partners Consortium. 87 operators, 751 authorized buses. 24/7 busway; main service 4AM-11PM. ₱15 base fare (0-5km), ₱2.65/km beyond; 20% discount SC/students/PWD. Cash only as of 2025.",
      "trip_variants": [
        {
          "variant_id": "EDSA-CAROUSEL-1-NB",
          "direction": "northbound",
          "direction_label": "To Monumento",
          "origin": "PITX",
          "destination": "Monumento / MCU",
          "stop_count_named": 19,
          "stop_count_total": 23,
          "stops_ordered": [
            {"seq": 1, "name": "PITX", "platform": "terminal", "city": "Parañaque", "rail": "LRT-1 Asia World-PITX", "lat_approx": 14.5266, "lon_approx": 121.0007},
            {"seq": 2, "name": "City of Dreams", "platform": "curbside", "city": "Parañaque", "rail": null, "lat_approx": 14.5275, "lon_approx": 121.0028},
            {"seq": 3, "name": "DFA / Macapagal Blvd", "platform": "curbside", "city": "Pasay", "rail": null, "lat_approx": 14.5330, "lon_approx": 121.0050},
            {"seq": 4, "name": "SM Mall of Asia / Roxas Blvd Eastbound", "platform": "curbside", "city": "Pasay", "rail": null, "lat_approx": 14.5349, "lon_approx": 120.9832},
            {"seq": 5, "name": "Taft / Pasay Rotonda", "platform": "median", "city": "Pasay", "rail": "LRT-1 EDSA; MRT-3 Taft Ave", "lat_approx": 14.5382, "lon_approx": 121.0010},
            {"seq": 6, "name": "Ayala (MRT-3 Ayala)", "platform": "curbside", "city": "Makati", "rail": "MRT-3 Ayala", "lat_approx": 14.5492, "lon_approx": 121.0185},
            {"seq": 7, "name": "Buendia Median", "platform": "median", "city": "Makati", "rail": "MRT-3 Buendia", "lat_approx": 14.5567, "lon_approx": 121.0196},
            {"seq": 8, "name": "Guadalupe Median", "platform": "median", "city": "Makati", "rail": "MRT-3 Guadalupe", "lat_approx": 14.5666, "lon_approx": 121.0208},
            {"seq": 9, "name": "Ortigas Median", "platform": "median", "city": "Mandaluyong", "rail": "MRT-3 Ortigas", "lat_approx": 14.5875, "lon_approx": 121.0568},
            {"seq": 10, "name": "Santolan-Annapolis Median", "platform": "median", "city": "San Juan", "rail": "MRT-3 Santolan", "lat_approx": 14.5998, "lon_approx": 121.0618},
            {"seq": 11, "name": "Main Avenue Median (Cubao)", "platform": "median", "city": "Quezon City", "rail": null, "lat_approx": 14.6154, "lon_approx": 121.0523},
            {"seq": 12, "name": "Nepa Q-Mart Median", "platform": "median", "city": "Quezon City", "rail": null, "lat_approx": 14.6262, "lon_approx": 121.0464},
            {"seq": 13, "name": "Kamuning / Quezon Avenue Median", "platform": "median", "city": "Quezon City", "rail": "MRT-3 Quezon Ave", "lat_approx": 14.6354, "lon_approx": 121.0393},
            {"seq": 14, "name": "Philam / North Avenue Median", "platform": "median", "city": "Quezon City", "rail": "MRT-3 North Ave", "lat_approx": 14.6521, "lon_approx": 121.0320},
            {"seq": 15, "name": "SM North EDSA", "platform": "median", "city": "Quezon City", "rail": null, "lat_approx": 14.6560, "lon_approx": 121.0300},
            {"seq": 16, "name": "Roosevelt / Fernando Poe Jr.", "platform": "median", "city": "Quezon City", "rail": "LRT-1 FPJ/Roosevelt", "lat_approx": 14.6630, "lon_approx": 121.0244},
            {"seq": 17, "name": "Kaingin Road", "platform": "median", "city": "Quezon City", "rail": null, "lat_approx": 14.6730, "lon_approx": 121.0200},
            {"seq": 18, "name": "Balintawak LRT-1", "platform": "median", "city": "Quezon City", "rail": "LRT-1 Balintawak", "lat_approx": 14.6819, "lon_approx": 121.0171},
            {"seq": 19, "name": "Bagong Barrio", "platform": "elevated/median", "city": "Caloocan", "rail": null, "lat_approx": 14.6918, "lon_approx": 121.0100},
            {"seq": 20, "name": "Monumento / MCU Median", "platform": "median", "city": "Caloocan", "rail": "LRT-1 Monumento", "lat_approx": 14.7041, "lon_approx": 120.9832}
          ]
        },
        {
          "variant_id": "EDSA-CAROUSEL-1-SB",
          "direction": "southbound",
          "direction_label": "To PITX",
          "origin": "Monumento / MCU",
          "destination": "PITX",
          "stop_count_named": 21,
          "stop_count_total": 24,
          "stops_ordered": [
            {"seq": 1, "name": "Monumento / MCU Median", "platform": "median", "city": "Caloocan", "rail": "LRT-1 Monumento"},
            {"seq": 2, "name": "Bagong Barrio", "platform": "elevated/median", "city": "Caloocan", "rail": null},
            {"seq": 3, "name": "Balintawak LRT-1", "platform": "median", "city": "Quezon City", "rail": "LRT-1 Balintawak"},
            {"seq": 4, "name": "Kaingin Road", "platform": "median", "city": "Quezon City", "rail": null},
            {"seq": 5, "name": "Roosevelt / Fernando Poe Jr.", "platform": "median", "city": "Quezon City", "rail": "LRT-1 FPJ/Roosevelt"},
            {"seq": 6, "name": "SM North EDSA / North Avenue", "platform": "median", "city": "Quezon City", "rail": "MRT-3 North Ave"},
            {"seq": 7, "name": "Philam QC / Quezon Avenue", "platform": "median", "city": "Quezon City", "rail": null},
            {"seq": 8, "name": "Kamuning / Nepa Q-Mart", "platform": "median", "city": "Quezon City", "rail": null},
            {"seq": 9, "name": "Main Avenue Median (Cubao)", "platform": "median", "city": "Quezon City", "rail": null},
            {"seq": 10, "name": "Santolan-Annapolis Median", "platform": "median", "city": "San Juan", "rail": "MRT-3 Santolan"},
            {"seq": 11, "name": "Ortigas Median", "platform": "median", "city": "Mandaluyong", "rail": "MRT-3 Ortigas"},
            {"seq": 12, "name": "Guadalupe Median", "platform": "median", "city": "Makati", "rail": "MRT-3 Guadalupe"},
            {"seq": 13, "name": "Buendia Median", "platform": "median", "city": "Makati", "rail": "MRT-3 Buendia"},
            {"seq": 14, "name": "One Ayala Terminal", "platform": "concourse", "city": "Makati", "rail": "MRT-3 Ayala"},
            {"seq": 15, "name": "Tramo Carousel Station", "platform": "curbside", "city": "Pasay", "rail": null},
            {"seq": 16, "name": "Taft / Pasay Rotonda", "platform": "median", "city": "Pasay", "rail": "LRT-1 EDSA; MRT-3 Taft Ave"},
            {"seq": 17, "name": "Roxas Blvd Westbound", "platform": "curbside", "city": "Pasay", "rail": null},
            {"seq": 18, "name": "SM Mall of Asia", "platform": "curbside", "city": "Pasay", "rail": null},
            {"seq": 19, "name": "DFA / Office of Consular Affairs", "platform": "curbside", "city": "Pasay", "rail": null},
            {"seq": 20, "name": "Ayala Malls By the Bay / ASEANA Terminal", "platform": "curbside", "city": "Parañaque", "rail": null},
            {"seq": 21, "name": "PITX", "platform": "terminal", "city": "Parañaque", "rail": "LRT-1 Asia World-PITX"}
          ]
        }
      ]
    }
  ]
}
